[{"address":"97 Collingwood St. San Francisco, CA 94114","latitude":37.7608759,"longitude":-122.4360847,"name":"Yoga Tree Castro","website":null},{"address":"519 Hayes St. San Francisco, CA 94102","latitude":37.7765269,"longitude":-122.425028,"name":"Yoga Tree Hayes","website":null},{"address":"24 Shotwell Street San Francisco, CA 94103","latitude":37.7679979,"longitude":-122.4167818,"name":"Yoga Tree Mission","website":null},{"address":"24 Shotwell St","latitude":37.7679979,"longitude":-122.4167818,"name":"Yoga Tree Stanyan","website":null},{"address":"4477 S Lamar Blvd #420, Austin, TX 78745","latitude":30.2308478,"longitude":-97.7990966,"name":"Yoga Yoga Westgate","website":"http://www.yogayoga.com/center/yoga-yoga-westgate"},{"address":"1700 S Lamar Blvd, Austin, TX 78704","latitude":30.251606,"longitude":-97.766487,"name":"Yoga Yoga South","website":"http://www.yogayoga.com/center/yoga-yoga-south"},{"address":"12001 Burnet Road, Austin, TX 78758","latitude":30.407499,"longitude":-97.7134373,"name":"Yoga Yoga Northwest","website":"http://www.yogayoga.com/center/yoga-yoga-northwest"},{"address":"2167 W Anderson Lane, Austin, TX 78757","latitude":30.3551388,"longitude":-97.7291337,"name":"Yoga Yoga North","website":"http://www.yogayoga.com/center/yoga-yoga-north"},{"address":"2501 S Capital of Texas Highway, Austin, TX 78746","latitude":30.262665,"longitude":-97.814617,"name":"Yoga Yoga 360","website":"http://www.yogayoga.com/center/yoga-yoga-360"},{"address":"3620 Bee Cave Road, Austin, TX 78746","latitude":30.2778587,"longitude":-97.8051358,"name":"Yoga Vida","website":"http://yogavidaaustin.com/"},{"address":"605 W 9th Street, Austin, TX 78701","latitude":30.2724654,"longitude":-97.7478388,"name":"Yoga RX","website":"http://www.yoga-rx.com/"},{"address":"12009 Highway 290 West, Suite 5, Austin, TX 78737","latitude":30.2110544,"longitude":-97.9687644,"name":"Yoga For You","website":"http://www.yogaforyouaustin.com/"},{"address":"3400 Kerbey Lane, Austin, TX 78703","latitude":30.306143,"longitude":-97.751287,"name":"Sol Associates Yoga Studio","website":"http://therapistaustin.com/yoga"},{"address":"1109-C South Congress Avenue, Austin, TX 78704","latitude":30.252747,"longitude":-97.748163,"name":"Soco Yoga inside South Congress Athletic Club","website":"http://socoyoga.com/"},{"address":"5000 W Slaughter Lane, Suite 201, Austin, TX 78749","latitude":30.2004882,"longitude":-97.8640907,"name":"Say Om Yoga","website":"http://www.sayomsouthaustin.com/"},{"address":"5145 North FM 620, Suite F120, Austin, TX 78732","latitude":30.3890539,"longitude":-97.8837419,"name":"Resolute Fitness Cycling & Yoga Studio","website":"http://resolutefitness.com/"},{"address":"3810 Medical Pkwy #101, Austin, TX 78756","latitude":30.306516,"longitude":-97.744076,"name":"Quiet Austin Yoga & Massage","website":"http://www.quietaustin.com/"},{"address":"3600 N Capital of Texas Highway, Suite 140A, Austin, TX 78746","latitude":30.3354702,"longitude":-97.8067722,"name":"Pure Bikram Yoga - Westlake-Davenport","website":"http://www.purebikramyoga.com/where-to-go/westlake-davenport"},{"address":"4301 W William Cannon Drive, Bldg B6, Suite 108, Austin, TX 78749","latitude":30.2227798,"longitude":-97.8411376,"name":"Pure Bikram Yoga - South Austin","website":"http://www.purebikramyoga.com/where-to-go/south-austin"},{"address":"7950 Great Northern Blvd, Austin, TX 78757","latitude":30.3626007,"longitude":-97.7415847,"name":"Pure Bikram Yoga - North Austin","website":"http://www.purebikramyoga.com/where-to-go/north-austin"},{"address":"507 Pressler Street, Suite 100, Austin, TX 78703","latitude":30.2727815,"longitude":-97.7607852,"name":"Pure Bikram Yoga - Downtown Austin","website":"http://www.purebikramyoga.com/where-to-go/downtown-austin"},{"address":"605 A Copeland Street, Austin, TX 78704","latitude":30.2535505,"longitude":-97.7537947,"name":"Clear Spring Studio","website":"http://www.clearspringstudio.com/"},{"address":"1112 North Lamar Blvd, Austin, TX 78703","latitude":30.276775,"longitude":-97.752047,"name":"Castle Hill Yoga","website":"http://www.castlehillfitness.com/yoga"},{"address":"4800 Burnet Road, Suite D440, Austin, TX 78756","latitude":30.3181244,"longitude":-97.7398815,"name":"Breath & Body Yoga","website":"http://www.breathandbodyyoga.com/"},{"address":"1114 W 5th Street, Austin, TX 78703","latitude":30.271609,"longitude":-97.757446,"name":"Black Swan yoga","website":"http://www.blackswanyoga.com/"},{"address":"2905 San Gariel Street #102, Austin, TX 78705","latitude":30.2979536,"longitude":-97.7470835,"name":"Bfree Yoga Austin","website":"http://www.bfreeaustin.com/"},{"address":"43 Rainey Street #104, Austin, TX 78701","latitude":30.2560574,"longitude":-97.7397307,"name":"Be Yoga","website":"http://www.behappybeyoga.com/"},{"address":"1010 RR 620 South #100, Austin, TX 78738","latitude":30.2843286,"longitude":-97.7652125,"name":"Balance Yoga","website":"http://www.balanceyogaaustin.com/"},{"address":"4006 S Lamar, Suite 700, Austin, TX 78704","latitude":30.236445,"longitude":-97.792681,"name":"Austin Yoga Institute","website":"http://austinyoga.org/"},{"address":"2105 Justin Lane #114, Austin, TX 78757","latitude":30.344299,"longitude":-97.735614,"name":"Ashtanga Yoga Center of Austin","website":"http://ashtangaaustin.com/"}]